{"type":"FeatureCollection","features":[{"type":"Feature","properties":{"volume":1,"part":"1b","number":23,"title":"Cape Sable bearing N:E by N: Distant 4 Miles","url":"http://maps.bpl.org/id/15121","date":1781,"state":""},"geometry":{"type":"Point","coordinates":[-65.70579528808594,43.406045194993965]}},{"type":"Feature","properties":{"volume":1,"part":"1b","number":23,"title":"Cape Sable bearing N:N:W distant 2 leagues and The Entrance of Barrington Bay N: by E ","url":"http://maps.bpl.org/id/15121","date":1781},"geometry":{"type":"Point","coordinates":[-65.53550720214844,43.428489260910034]}},{"type":"Feature","properties":{"volume":1,"part":"1b","number":23,"title":"The Ovens at the Entrance of Lunenburg Bay","url":"http://maps.bpl.org/id/15121","date":1781},"geometry":{"type":"Point","coordinates":[-64.24873352050781,44.32605855483665]}},{"type":"Feature","properties":{"volume":1,"part":"1b","number":23,"title":"The High Lands of Haspotagoen bearing N:W: 1/2N: being three Leagues off Shore","url":"http://maps.bpl.org/id/15121","date":1781},"geometry":{"type":"Point","coordinates":[-64.04239654541016,44.51193134659297]}},{"type":"Feature","properties":{"volume":1,"part":"1b","number":23,"title":"Cape Prospect bearing N: by E: distant 10 1/2 Miles and Cape Sambro N:N:E:3/4E: 14 Miles","url":"http://maps.bpl.org/id/15121","date":1781},"geometry":{"type":"Point","coordinates":[-63.72791290283203,44.383747221908365]}}]}