{"type":"FeatureCollection","features":[{"type":"Feature","properties":{"volume":1,"part":"2a","number":41,"title":"View of Cape Egmont and Winter Rock from the Eastward","url":"http://maps.bpl.org/id/15144","date":1777},"geometry":{"type":"Point","coordinates":[-62.980842590332024,44.65815279547496]}},{"type":"Feature","properties":{"volume":1,"part":"2a","number":41,"title":"Entrance of Egmont Harbor","url":"http://maps.bpl.org/id/15144","date":1777},"geometry":{"type":"Point","coordinates":[-63.01586151123047,44.672315242344084]}},{"type":"Feature","properties":{"volume":1,"part":"2a","number":41,"title":"The Entrance of Keppel Harbor, 10 Leagues to the Eastward of Halifax","url":"http://maps.bpl.org/id/15144","date":1777},"geometry":{"type":"Point","coordinates":[-62.76214599609374,44.69745726633335]}},{"type":"Feature","properties":{"volume":1,"part":"2a","number":41,"title":"Falls of Hinchinbroke River, the North East Branch of Sandwich Bay","url":"http://maps.bpl.org/id/15144","date":1777},"geometry":{"type":"Point","coordinates":[-61.665229797363274,45.19147379432298]}},{"type":"Feature","properties":{"volume":1,"part":"2a","number":41,"title":"The Entrance into Chisetcooke Inlet 4 Leagues Eastward of Halifax","url":"http://maps.bpl.org/id/15144","date":1777},"geometry":{"type":"Point","coordinates":[-63.232841491699226,44.66743203082226]}},{"type":"Feature","properties":{"volume":1,"part":"2a","number":41,"title":"Dartmouth Shore in the Harbor of Halifax","url":"http://maps.bpl.org/id/15144","date":1777},"geometry":{"type":"Point","coordinates":[-63.57616424560547,44.66083904265621]}}]}